[
    {
        "X": "-9.104600012589737",
        "Y": "53.262472165778256",
        "OBJECTID": "1",
        "LOCATION": "Joyces Knocknacarra",
        "RECYCLABLE": "Glass",
        "Lat": "53.263",
        "Long": "-9.105",
        "EastITM": "526265.906",
        "NorthITM": "724165.855",
        "EastIG": "126299.228",
        "NorthIG": "224136.428"
    },
    {
        "X": "-9.073531663370176",
        "Y": "53.259711101723688",
        "OBJECTID": "2",
        "LOCATION": "Toft Park, Salthill Aquarium",
        "RECYCLABLE": "Glass & Textiles",
        "Lat": "53.26",
        "Long": "-9.074",
        "EastITM": "528333.708",
        "NorthITM": "723827.097",
        "EastIG": "128367.477",
        "NorthIG": "223797.61"
    },
    {
        "X": "-9.076540600104147",
        "Y": "53.276289895814678",
        "OBJECTID": "3",
        "LOCATION": "Westside Shopping Centre",
        "RECYCLABLE": "Glass & Textiles",
        "Lat": "53.277",
        "Long": "-9.077",
        "EastITM": "528160.767",
        "NorthITM": "725674.54",
        "EastIG": "128194.493",
        "NorthIG": "225645.448"
    },
    {
        "X": "-9.042453317342229",
        "Y": "53.276092597532831",
        "OBJECTID": "4",
        "LOCATION": "City Hall, College Road",
        "RECYCLABLE": "Glass & Textiles",
        "Lat": "53.276",
        "Long": "-9.043",
        "EastITM": "530433.513",
        "NorthITM": "725618.882",
        "EastIG": "130467.73",
        "NorthIG": "225589.792"
    },
    {
        "X": "-9.050600456160197",
        "Y": "53.277994156169719",
        "OBJECTID": "5",
        "LOCATION": "Dyke Road Car Park",
        "RECYCLABLE": "Glass & Textiles",
        "Lat": "53.278",
        "Long": "-9.051",
        "EastITM": "529893.339",
        "NorthITM": "725838.393",
        "EastIG": "129927.438",
        "NorthIG": "225809.346"
    },
    {
        "X": "-9.047289355134019",
        "Y": "53.280921528644399",
        "OBJECTID": "6",
        "LOCATION": "Galway Shopping Centre- Tesco",
        "RECYCLABLE": "Glass & Textiles",
        "Lat": "53.281",
        "Long": "-9.048",
        "EastITM": "530118.9",
        "NorthITM": "726160.829",
        "EastIG": "130153.047",
        "NorthIG": "226131.853"
    },
    {
        "X": "-9.036668204270322",
        "Y": "53.286195343630354",
        "OBJECTID": "7",
        "LOCATION": "Galway City Council Depot, Lisbaun Ind Estate",
        "RECYCLABLE": "Glass, Textiles, Liquids, Batteries, Light Bulbs, WEEE, Large Hard Plastics, Waste Metals, Timber",
        "Lat": "53.286",
        "Long": "-9.037",
        "EastITM": "530835.595",
        "NorthITM": "726737.226",
        "EastIG": "130869.894",
        "NorthIG": "226708.378"
    },
    {
        "X": "-9.045396965163491",
        "Y": "53.28416137133889",
        "OBJECTID": "8",
        "LOCATION": "Terryland, Dunnes Stores",
        "RECYCLABLE": "Glass & Textiles",
        "Lat": "53.284",
        "Long": "-9.046",
        "EastITM": "530250.351",
        "NorthITM": "726519.422",
        "EastIG": "130284.526",
        "NorthIG": "226490.523"
    },
    {
        "X": "-9.011452955348092",
        "Y": "53.285362829734133",
        "OBJECTID": "9",
        "LOCATION": "Ballybane Shopping Centre",
        "RECYCLABLE": "Glass & Textiles",
        "Lat": "53.286",
        "Long": "-9.012",
        "EastITM": "532515.346",
        "NorthITM": "726620.508",
        "EastIG": "132550.009",
        "NorthIG": "226591.644"
    },
    {
        "X": "-9.014816641260293",
        "Y": "53.275349456250957",
        "OBJECTID": "10",
        "LOCATION": "Renmore, beside Kingfisher Club",
        "RECYCLABLE": "Glass & Textiles",
        "Lat": "53.276",
        "Long": "-9.015",
        "EastITM": "532275.269",
        "NorthITM": "725509.672",
        "EastIG": "132309.883",
        "NorthIG": "225480.569"
    },
    {
        "X": "-8.985624445593389",
        "Y": "53.287666816226157",
        "OBJECTID": "11",
        "LOCATION": "Doughiska, Centra",
        "RECYCLABLE": "Glass & Textiles",
        "Lat": "53.288",
        "Long": "-8.986",
        "EastITM": "534240.867",
        "NorthITM": "726852.764",
        "EastIG": "134275.902",
        "NorthIG": "226823.961"
    },
    {
        "X": "-9.100005661237697",
        "Y": "53.270146467828731",
        "OBJECTID": "12",
        "LOCATION": "Western Distributor Road",
        "RECYCLABLE": "Glass & Textiles",
        "Lat": "53.27",
        "Long": "-9.101",
        "EastITM": "526585.513",
        "NorthITM": "725014.907",
        "EastIG": "126618.901",
        "NorthIG": "224985.664"
    },
    {
        "X": ""
    }
]